{"type": "FeatureCollection", "id": "http://fuzzy-sl.squirrel.link/data/Entity_collection", "name": "Entity Instances Collection", "features": [{"type": "Feature", "id": "http://fuzzy-sl.squirrel.link/data/cisite_52", "name": "Urluia (Romania) (fsld:cisite_52)", "dateprops": [], "properties": {}, "geometry": {"type": "Point", "coordinates": [27.9021, 44.0947], "crs": "4326"}}, {"type": "Feature", "id": "http://fuzzy-sl.squirrel.link/data/cisite_54", "name": "Vlasca (Romania) (fsld:cisite_54)", "dateprops": [], "properties": {}, "geometry": {"type": "Point", "coordinates": [27.8491, 44.3921], "crs": "4326"}}, {"type": "Feature", "id": "http://fuzzy-sl.squirrel.link/data/cisite_55", "name": "Lower Danube Basin (Romania) (fsld:cisite_55)", "dateprops": [], "properties": {}, "geometry": {"type": "Point", "coordinates": [25.292, 43.655], "crs": "4326"}}, {"type": "Feature", "id": "http://fuzzy-sl.squirrel.link/data/cisite_22", "name": "Phlegraean Fields (fsld:cisite_22)", "dateprops": [], "properties": {}, "geometry": {"type": "Point", "coordinates": [14.1402, 40.8275], "crs": "4326"}}, {"type": "Feature", "id": "http://fuzzy-sl.squirrel.link/data/cisite_42", "name": "Kozarnika Cave (Bulgaria) (fsld:cisite_42)", "dateprops": [], "properties": {}, "geometry": {"type": "Point", "coordinates": [22.7024, 43.6519], "crs": "4326"}}, {"type": "Feature", "id": "http://fuzzy-sl.squirrel.link/data/cisite_28", "name": "Sant\u2018 Angelo a Scala (fsld:cisite_28)", "dateprops": [], "properties": {}, "geometry": {"type": "Point", "coordinates": [14.7402, 40.9746], "crs": "4326"}}, {"type": "Feature", "id": "http://fuzzy-sl.squirrel.link/data/cisite_43", "name": "Temnata Cave (Bulgaria) (fsld:cisite_43)", "dateprops": [], "properties": {}, "geometry": {"type": "Point", "coordinates": [23.3848, 43.0892], "crs": "4326"}}, {"type": "Feature", "id": "http://fuzzy-sl.squirrel.link/data/cisite_5", "name": "Castelcivita Cave (fsld:cisite_5)", "dateprops": [], "properties": {}, "geometry": {"type": "Point", "coordinates": [15.2092, 40.4956], "crs": "4326"}}, {"type": "Feature", "id": "http://fuzzy-sl.squirrel.link/data/cisite_27", "name": "Sant\u2018 Agata dei due Golfi (fsld:cisite_27)", "dateprops": [], "properties": {}, "geometry": {"type": "Point", "coordinates": [14.3733, 40.607], "crs": "4326"}}, {"type": "Feature", "id": "http://fuzzy-sl.squirrel.link/data/cisite_65", "name": "Haua-Fteah (Libya) (fsld:cisite_65)", "dateprops": [], "properties": {}, "geometry": {"type": "Point", "coordinates": [22.0516, 32.9002], "crs": "4326"}}, {"type": "Feature", "id": "http://fuzzy-sl.squirrel.link/data/cisite_45", "name": "Franchthi Cave (Greece) (fsld:cisite_45)", "dateprops": [], "properties": {}, "geometry": {"type": "Point", "coordinates": [23.1311, 37.4226], "crs": "4326"}}, {"type": "Feature", "id": "http://fuzzy-sl.squirrel.link/data/cisite_24", "name": "Pozzuoli Bay (fsld:cisite_24)", "dateprops": [], "properties": {}, "geometry": {"type": "Point", "coordinates": [14.089, 40.8215], "crs": "4326"}}, {"type": "Feature", "id": "http://fuzzy-sl.squirrel.link/data/cisite_10", "name": "Marina di Cassano (Naples) (fsld:cisite_10)", "dateprops": [], "properties": {}, "geometry": {"type": "Point", "coordinates": [14.3998, 40.6385], "crs": "4326"}}, {"type": "Feature", "id": "http://fuzzy-sl.squirrel.link/data/cisite_19", "name": "Paglicci Cave (fsld:cisite_19)", "dateprops": [], "properties": {}, "geometry": {"type": "Point", "coordinates": [15.615, 41.6541], "crs": "4326"}}, {"type": "Feature", "id": "http://fuzzy-sl.squirrel.link/data/cisite_48", "name": "Susak Island (Greece) (fsld:cisite_48)", "dateprops": [], "properties": {}, "geometry": {"type": "Point", "coordinates": [14.2921, 44.5104], "crs": "4326"}}, {"type": "Feature", "id": "http://fuzzy-sl.squirrel.link/data/cisite_44", "name": "Toplitsa Cave (Bulgaria) (fsld:cisite_44)", "dateprops": [], "properties": {}, "geometry": {"type": "Point", "coordinates": [24.0053, 43.1907], "crs": "4326"}}, {"type": "Feature", "id": "http://fuzzy-sl.squirrel.link/data/cisite_6", "name": "Copecchia (fsld:cisite_6)", "dateprops": [], "properties": {}, "geometry": {"type": "Point", "coordinates": [14.7662, 40.7198], "crs": "4326"}}, {"type": "Feature", "id": "http://fuzzy-sl.squirrel.link/data/cisite_51", "name": "Crvena Stiljena (Montenegro) (fsld:cisite_51)", "dateprops": [], "properties": {}, "geometry": {"type": "Point", "coordinates": [18.4815, 42.779], "crs": "4326"}}, {"type": "Feature", "id": "http://fuzzy-sl.squirrel.link/data/cisite_50", "name": "Golema Pesht Cave near Zdunje (Macedonia) (fsld:cisite_50)", "dateprops": [], "properties": {}, "geometry": {"type": "Point", "coordinates": [21.1617, 41.8117], "crs": "4326"}}], "numberMatched": 19, "numberReturned": 19, "bbox": [14.089, 32.9002, 27.9021, 44.5104], "crs": "http://www.opengis.net/def/crs/EPSG/0/4326"}